[
  {
    "label": "START",
    "lat": 50.716005069357365,
    "lon": -4.001751965330856,
    "via": false,
    "nt": null
  },
  {
    "label": "OKEMENT HILL",
    "lat": 50.67259474327585,
    "lon": -3.9789576840495755,
    "via": false,
    "nt": null
  },
  {
    "label": "WATERN TOR",
    "lat": 50.66558357097767,
    "lon": -3.9413043771648293,
    "via": false,
    "nt": null
  },
  {
    "label": "FERNWORTHY",
    "lat": 50.6426698584481,
    "lon": -3.9238112309551303,
    "via": false,
    "nt": null
  },
  {
    "label": "WATER HILL",
    "lat": 50.61605507837809,
    "lon": -3.8793275022123113,
    "via": false,
    "nt": "18:00"
  },
  {
    "label": "HIGHER WHITE TOR",
    "lat": 50.590726476633506,
    "lon": -3.9537640154999063,
    "via": false,
    "nt": "18:20"
  },
  {
    "label": "HOLMING BEAM",
    "lat": 50.570857086908525,
    "lon": -3.9905076152158663,
    "via": false,
    "nt": "18:10"
  },
  {
    "label": "STANDON FARM",
    "lat": 50.61465439743198,
    "lon": -4.057946123938382,
    "via": false,
    "nt": "17:50"
  },
  {
    "label": "HARE TOR",
    "lat": 50.64015232575805,
    "lon": -4.050291131637478,
    "via": false,
    "nt": null
  },
  {
    "label": "NODDEN GATE",
    "lat": 50.65795421228233,
    "lon": -4.081061962886664,
    "via": false,
    "nt": null
  },
  {
    "label": "EAST MILL TOR",
    "lat": 50.69157092206343,
    "lon": -3.984287176506426,
    "via": false,
    "nt": null
  },
  {
    "label": "FINISH",
    "lat": 50.716005069357365,
    "lon": -4.001751965330856,
    "via": false,
    "nt": null
  }
]